[
  {
    "id": "urn:ngsi-ld:WeatherLocation:hanoi-hoan-kien",
    "type": "WeatherLocation",
    "name": "Hồ Hoàn Kiếm",
    "city": "Hanoi",
    "district": "Hoàn Kiếm",
    "location": {
      "lat": 21.028511,
      "lon": 105.804817
    },
    "address": {
      "addressLocality": "Hoàn Kiếm",
      "addressCountry": "VN"
    },
    "timezone": 25200
  },
  {
    "id": "urn:ngsi-ld:WeatherLocation:hanoi-my-dinh",
    "type": "WeatherLocation",
    "name": "Mỹ Đình",
    "city": "Hanoi",
    "district": "Nam Từ Liêm",
    "location": {
      "lat": 21.028023,
      "lon": 105.778466
    },
    "address": {
      "addressLocality": "Nam Từ Liêm",
      "addressCountry": "VN"
    },
    "timezone": 25200
  },
  {
    "id": "urn:ngsi-ld:WeatherLocation:hanoi-long-bien",
    "type": "WeatherLocation",
    "name": "Quận Long Biên",
    "city": "Hanoi",
    "district": "Long Biên",
    "location": {
      "lat": 21.054351,
      "lon": 105.886446
    },
    "address": {
      "addressLocality": "Long Biên",
      "addressCountry": "VN"
    },
    "timezone": 25200
  },
  {
    "id": "urn:ngsi-ld:WeatherLocation:hanoi-ho-tay",
    "type": "WeatherLocation",
    "name": "Hồ Tây",
    "city": "Hanoi",
    "district": "Tây Hồ",
    "location": {
      "lat": 21.068176,
      "lon": 105.814129
    },
    "address": {
      "addressLocality": "Tây Hồ",
      "addressCountry": "VN"
    },
    "timezone": 25200
  },
  {
    "id": "urn:ngsi-ld:WeatherLocation:hanoi-ha-dong",
    "type": "WeatherLocation",
    "name": "Hà Đông",
    "city": "Hanoi",
    "district": "Hà Đông",
    "location": {
      "lat": 20.959001,
      "lon": 105.765226
    },
    "address": {
      "addressLocality": "Hà Đông",
      "addressCountry": "VN"
    },
    "timezone": 25200
  }
]
